<?xml version="1.0" encoding="utf-8"?>
<pref_info>
  <pref>
    <pref_id>9</pref_id>
    <pref_name>栃木県</pref_name>
    <area>
      <area_id>901</area_id>
      <area_name>北部</area_name>
      <long>139.9956</long>
      <lat>36.9180</lat>
    </area>
    <area>
      <area_id>902</area_id>
      <area_name>南部</area_name>
      <long>139.8637</long>
      <lat>36.5835</lat>
    </area>
  </pref>
  <pref>
    <pref_id>10</pref_id>
    <pref_name>群馬県</pref_name>
    <area>
      <area_id>1001</area_id>
      <area_name>北部</area_name>
      <long>139.0398</long>
      <lat>36.8477</lat>
    </area>
    <area>
      <area_id>1002</area_id>
      <area_name>南部</area_name>
      <long>139.1386</long>
      <lat>36.3891</lat>
    </area>
  </pref>
  <pref>
    <pref_id>11</pref_id>
    <pref_name>埼玉県</pref_name>
    <area>
      <area_id>1101</area_id>
      <area_name>北部</area_name>
      <long>139.3474</long>
      <lat>36.1500</lat>
    </area>
    <area>
      <area_id>1102</area_id>
      <area_name>南部</area_name>
      <long>139.5122</long>
      <lat>35.9457</lat>
    </area>
  </pref>
  <pref>
    <pref_id>12</pref_id>
    <pref_name>千葉県</pref_name>
    <area>
      <area_id>1201</area_id>
      <area_name>北東部</area_name>
      <long>140.6877</long>
      <lat>35.7765</lat>
    </area>
    <area>
      <area_id>1202</area_id>
      <area_name>
        <long>140.1494</long>
        <lat>35.6248</lat>
      </area_name>
      <long></long>
      <lat></lat>
    </area>
  </pref>
  <pref>
    <pref_id>13</pref_id>
    <pref_name>東京都</pref_name>
    <area>
      <area_id>1301</area_id>
      <area_name>伊豆諸島北部</area_name>
      <long>139.3803</long>
      <lat>34.7358</lat>
    </area>
    <area>
      <area_id>1302</area_id>
      <area_name>伊豆諸島南部</area_name>
      <long>139.8418</long>
      <lat>33.2419</lat>
    </area>
    <area>
      <area_id>1303</area_id>
      <area_name>小笠原諸島</area_name>
      <long>142.2208</long>
      <lat>27.0714</lat>
    </area>
    <area>
      <area_id>1304</area_id>
      <area_name>東京地方</area_name>
      <long>139.7498</long>
      <lat>35.6862</lat>
    </area>
  </pref>
  <pref>
    <pref_id>14</pref_id>
    <pref_name>神奈川県</pref_name>
    <area>
      <area_id>1401</area_id>
      <area_name>東部</area_name>
      <long>139.5479</long>
      <lat>35.5142</lat>
    </area>
    <area>
      <area_id>1402</area_id>
      <area_name>西部</area_name>
      <long>139.1716</long>
      <lat>35.3654</lat>
    </area>
  </pref>
  <pref>
    <pref_id>15</pref_id>
    <pref_name>新潟県</pref_name>
    <area>
      <area_id>1501</area_id>
      <area_name>上越</area_name>
      <long>138.2210</long>
      <lat>37.1395</lat>
    </area>
    <area>
      <area_id>1502</area_id>
      <area_name>下越</area_name>
      <long>139.2925</long>
      <lat>37.9561</lat>
    </area>
  </pref>
  <pref>
    <pref_id>16</pref_id>
    <pref_name>富山県</pref_name>
    <area>
      <area_id>1601</area_id>
      <area_name>東部</area_name>
      <long>137.2270</long>
      <lat>36.7157</lat>
    </area>
    <area>
      <area_id>1602</area_id>
      <area_name>西部</area_name>
      <long>137.0293</long>
      <lat>36.7949</lat>
    </area>
  </pref>
	<pref>
		<pref_id>17</pref_id>
		<pref_name>石川県</pref_name>
		<area>
			<area_id>1701</area_id>
			<area_name>加賀</area_name>
			<long>136.6667</long>
			<lat>36.3538</lat>
		</area>
		<area>
			<area_id>1702</area_id>
			<area_name>能登</area_name>
			<long>137.0952</long>
			<lat>37.4868</lat>	
		</area>
	</pref>
	<pref>
		<pref_id>18</pref_id>
		<pref_name>福井</pref_name>
		<area>
			<area_id>1801</area_id>
			<area_name>嶺北</area_name>
			<long>136.1504</long>
			<lat>36.0612</lat>
		</area>
		<area>
			<area_id>1802</area_id>
			<area_name>嶺南</area_name>
			<long>136.0954</long>
			<lat>35.6159</lat>
		</area>
	</pref>
</pref_info>